Label,Latitude ,Longitude
Intersection,43.63110023,-79.35693552
Transit stop,43.63143896,-79.35780131
Hospital ER,43.65865419,-79.38647489
Pharmacy,43.64162333,-79.38015476
Elementary school,43.61632277,-79.37857102
High school,43.68094379,-79.43622459
Services Ontario,43.65022686,-79.37695008